[
  {
    "id": "pho-gia-truyen",
    "name": "Phở Gia Truyền",
    "address": "49 Bát Đàn, Hàng Bồ, Hoàn Kiếm",
    "location": {
      "coordinates": {
        "lat": 21.0341,
        "lng": 105.8501
      }
    }
  },
  {
    "id": "pho-thin",
    "name": "Phở Thìn",
    "address": "13 Lò Đúc, Phạm Đình Hổ, Hai Bà Trưng",
    "location": {
      "coordinates": {
        "lat": 21.0182,
        "lng": 105.8566
      }
    }
  },
  {
    "id": "pho-ly-quoc-su",
    "name": "Phở Lý Quốc Sư",
    "address": "42 Hàng Vôi, Lý Thái Tổ, Hoàn Kiếm",
    "location": {
      "coordinates": {
        "lat": 21.0305,
        "lng": 105.8543
      }
    }
  },
  {
    "id": "pho-le",
    "name": "Phở Lê",
    "address": "303-305 Võ Văn Tần, Ward 5, District 3",
    "location": {
      "coordinates": {
        "lat": 10.7798,
        "lng": 106.6868
      }
    }
  },
  {
    "id": "pho-hoa",
    "name": "Phở Hòa",
    "address": "260C Pasteur, Ward 8, District 3",
    "location": {
      "coordinates": {
        "lat": 10.7867,
        "lng": 106.6925
      }
    }
  },
  {
    "id": "pho-phu-vuong",
    "name": "Phở Phú Vương",
    "address": "339 Lê Văn Sỹ, Ward 1, Tân Bình",
    "location": {
      "coordinates": {
        "lat": 10.7903,
        "lng": 106.6664
      }
    }
  },
  {
    "id": "bun-bo-hue-dong-ba",
    "name": "Bún Bò Huế Đông Ba",
    "address": "23 Trần Thúc Nhẫn, Phú Hội, Thành phố Huế",
    "location": {
      "coordinates": {
        "lat": 16.4674,
        "lng": 107.5968
      }
    }
  },
  {
    "id": "pho-bac-hai",
    "name": "Phở Bắc Hải",
    "address": "87 Lê Duẩn, Hải Châu 1, Hải Châu",
    "location": {
      "coordinates": {
        "lat": 16.0715,
        "lng": 108.2208
      }
    }
  }
]
